City,Country,Latitude,Longitude,Temperature,Humidity,PM2.5,PM10,NO2,SO2,CO,AQI,Air_Quality_Category,Population_Density,Proximity_to_Industrial_Areas,Timestamp
"Palacio Municipal, Municipio de Mexicali, Baja California - Municipal, Mexico",Mexico,32.640027777778,-115.47463888889,36.1,37.0,170.0,63.0,11.5,,0.4,170,Poor,10875.84,,2026-03-25T01:54:15.431863
"Durango, Durango, Mexico",Mexico,24.03447,-104.64503,24.4,9.0,143.0,1.0,,,0.1,143,Poor,,,2026-03-25T01:54:29.437210
"Facultad De Medicina, Mexico",Mexico,21.133545,-101.679543,21.6,39.6,136.0,30.0,4.6,4.2,14.3,136,Poor,,,2026-03-25T01:54:40.440899
"Secundaria Leyes de Reforma, Aguascalientes, Mexico",Mexico,21.903003362672,-102.28461279505,6.6,41.0,127.0,52.0,19.2,,0.2,127,Poor,10999.44,,2026-03-25T01:54:44.362993
"Palacio Municipal, Morelia, Mexico",Mexico,19.702153,-101.190948,24.0,29.0,72.0,,,,21.7,72,Moderate,9463.68,,2026-03-25T01:55:01.447211
"Tulancingo, Hidalgo, Mexico",Mexico,20.08525,-98.366638888889,25.0,73.0,67.0,35.0,4.4,6.0,15.5,67,Moderate,1351.71,,2026-03-25T01:55:11.448968
"Nativitas, Mexico",Mexico,20.565231,-101.188248,21.2,39.5,,64.0,9.3,39.0,18.7,64,Moderate,,,2026-03-25T01:55:21.672133
"Aguilas, Jalisco, Mexico",Mexico,20.629602722222224,-103.41677252777778,24.0,25.0,63.0,40.0,31.8,3.7,6.8,63,Moderate,,,2026-03-25T01:55:36.675650
"Miravalle, Guadalajara, Mexico",Mexico,20.61504997567,-103.34343019128,24.0,25.0,63.0,53.0,13.7,1.1,5.5,63,Moderate,,,2026-03-25T01:55:48.678162
"Las Pintas, Guadalajara, Mexico",Mexico,20.5767,-103.32652222222,24.0,25.0,62.0,38.0,9.9,,7.3,62,Moderate,342.07,,2026-03-25T01:55:54.359907
"US Embassy, Guatemala City, Guatemala",Guatemala,14.6069387,-90.5169696,15.0,87.0,61.0,,,,,61,Moderate,31197.09,,2026-03-25T01:56:00.694474
"San Salvador Este, El Salavor",El Salvador,13.71518889,-89.15481944,26.0,61.0,9.0,,,,,-,,4024.59,,2026-03-25T01:56:07.378492
"ITCA, Santa Tecla, El Salavor",El Salvador,13.673168,-89.279399,24.0,62.0,93.0,,,,,93,Moderate,1480.89,,2026-03-25T01:56:11.696294
"UTEC Campus, San Salvador, El Salavor",El Salvador,13.6999671,-89.2010843,30.9,88.8,91.0,,,,,91,Moderate,4024.59,,2026-03-25T01:56:19.382083
"San Salvador Centro, El Salavor",El Salvador,13.70630556,-89.20011667,25.5,50.1,,,,,,-,,4024.59,,2026-03-25T01:56:24.476638
"San Jose US Embassy, Costa Rica",Costa Rica,9.949488,-84.142876,20.9,69.2,38.0,,,,,38,Good,165.52,,2026-03-25T01:56:40.476980
"MinAmbiente, Bogota, Colombia",Colombia,4.62529,-74.06724,17.8,71.0,132.0,66.0,13.5,0.5,7.5,132,Poor,,,2026-03-25T01:57:25.493896
"San Cristobal, Bogota, Colombia",Colombia,4.5725,-74.0836,18.9,59.0,129.0,59.0,7.2,1.2,4.0,129,Poor,,,2026-03-25T01:57:29.434716
"Carvajal - Sevillana, Bogota, Colombia",Colombia,4.5958,-74.14855,22.6,87.0,114.0,,,1.0,7.5,114,Poor,,,2026-03-25T01:57:33.496074
"Kennedy, Bogota, Colombia",Colombia,4.6249,-74.16135,16.0,60.3,105.0,56.0,4.0,0.6,2.4,105,Poor,,,2026-03-25T01:57:38.440822
"Fontibon, Bogota, Colombia",Colombia,4.6782472,-74.1438166,17.7,60.3,104.0,52.0,5.4,0.8,4.7,104,Poor,445.63,,2026-03-25T01:57:42.348694
"Centro de Alto Rendimiento, Bogota, Colombia",Colombia,4.65837,-74.084,17.8,71.0,102.0,56.0,11.3,0.8,4.7,102,Poor,104164.41,,2026-03-25T01:57:45.499128
"Puente Aranda, Bogota, Colombia",Colombia,4.63187,-74.11757,16.0,71.0,96.0,58.0,8.8,,6.6,96,Moderate,104164.41,,2026-03-25T01:57:49.444846
"Tunal, Bogota, Colombia",Colombia,4.57619,-74.13093,16.0,53.0,91.0,63.0,9.3,0.9,,91,Moderate,,,2026-03-25T01:57:54.360642
"Guaymaral, Bogota, Colombia",Colombia,4.78374,-74.04417,21.0,51.0,74.0,44.0,5.9,0.3,3.4,74,Moderate,445.63,,2026-03-25T01:57:58.502341
"Belisario, Quito, Ecuador",Ecuador,-0.184719,-78.495986,12.87,87.0,56.0,24.0,30.5,5.5,9.0,56,Moderate,34010.69,,2026-03-25T01:58:23.512377
"Centro, Quito, Ecuador",Ecuador,-0.221393,-78.514005,12.87,87.0,42.0,,17.0,0.8,22.1,42,Good,34010.69,,2026-03-25T01:58:27.454214
"El Camal, Quito, Ecuador",Ecuador,-0.25,-78.51,13.87,87.0,21.0,,33.3,2.7,12.3,21,Good,,,2026-03-25T01:58:36.532143
"Cotocollao, Quito, Ecuador",Ecuador,-0.107777,-78.497222,14.49,87.0,12.0,24.0,21.7,1.5,6.8,12,Good,,,2026-03-25T01:58:40.459393
"Los Chillos, Quito, Ecuador",Ecuador,-0.297062,-78.455248,16.04,87.0,,,18.6,11.1,8.7,8,Good,,,2026-03-25T01:58:50.519278
"estacion01, Cuenca, Ecuador",Ecuador,-2.897,-79.003,23.0,18.0,151.0,,130.2,9.7,4.6,151,Poor,6312.42,,2026-03-25T01:58:54.465716
"estacion02, Cuenca, Ecuador",Ecuador,-2.879789,-78.980213,23.0,18.0,134.0,,130.2,9.7,4.6,142,Poor,6312.42,,2026-03-25T01:58:58.372062
"estacion03, Cuenca, Ecuador",Ecuador,-2.879889,-78.981213,15.0,87.0,51.0,,16.5,4.6,9.5,51,Moderate,6312.42,,2026-03-25T01:59:01.525800
"Tumbaco, Quito, Ecuador",Ecuador,-0.214933,-78.403253,22.49,56.0,30.0,,6.3,4.8,,43,Good,,,2026-03-25T01:59:05.475409
"Carapungo, Quito, Ecuador",Ecuador,-0.095472,-78.449809,19.84,56.0,42.0,24.0,5.1,4.6,6.9,42,Good,,,2026-03-25T01:59:10.527224
"San Juan De Lurigancho, Lima, Peru",Peru,-11.98164,-76.99925,25.5,72.0,82.0,52.0,13.9,6.4,27.4,82,Moderate,,,2026-03-25T01:59:15.377671
"Villa Maria Del Triunfo, Lima, Peru",Peru,-12.16639,-76.92,25.5,72.0,82.0,37.0,9.3,4.7,33.5,82,Moderate,1018.59,,2026-03-25T01:59:19.529495
"San Martin De Porres, Lima, Peru",Peru,-12.00889,-77.08447,25.5,72.0,81.0,36.0,40.2,1.8,10.0,81,Moderate,,,2026-03-25T01:59:29.482232
"Santa Anita, Lima, Peru",Peru,-12.04302,-76.97144,25.5,72.0,,74.0,20.0,10.5,20.0,74,Moderate,,,2026-03-25T01:59:33.534073
"Campo De Marte, Lima, Peru",Peru,-12.07054,-77.04322,25.5,72.0,72.0,31.0,13.2,9.1,21.0,72,Moderate,127188.7,,2026-03-25T01:59:43.486365
"San Borja, Lima, Peru",Peru,-12.10859,-77.00769,25.5,72.0,69.0,51.0,16.6,15.8,20.0,69,Moderate,,,2026-03-25T01:59:50.536433
"US Embassy, Lima, Peru",Peru,-12.1052081,-76.9709299,23.3,84.0,34.0,,,,,34,Good,,,2026-03-25T02:00:01.539326
"Huachipa, Lima, Peru",Peru,-12.01689,-76.94883,22.2,75.0,193.0,155.0,8.4,33.0,200.9,33,Good,,,2026-03-25T02:00:12.541653
"Ate, Lima, Peru",Peru,-12.02611,-76.91861,22.8,85.3,,,,,,-,,,,2026-03-25T02:00:21.543191
"Carabayllo, Lima, Peru",Peru,-11.90219,-77.03364,25.5,72.0,,,24.3,7.7,16.2,16,Good,,,2026-03-25T02:00:36.546781
"Puente Piedra, Lima, Peru",Peru,-11.86325,-77.07413,25.5,72.0,71.0,,9.6,7.4,28.1,71,Moderate,,,2026-03-25T02:00:41.507060
"Velachery Res. Area, Chennai, Chennai, India",Peru,13.0052189,80.2398125,26.0,79.98,115.0,38.0,5.5,2.6,,115,Poor,,,2026-03-25T02:00:51.553132
"IIT, Chennai, Chennai, India",Peru,12.99251389,80.23744722,30.0,62.0,,,,,,-,,,,2026-03-25T02:01:03.555861
"Fuerza Aerea, Cochabamba, Bolivia",Bolivia,-17.4197854,-66.1685226,19.0,34.0,,49.0,,,,49,Good,8473.19,,2026-03-25T02:01:20.558619
"Parque Kanata, Cochabamba, Bolivia",Bolivia,-17.4125902,-66.1584437,19.0,34.0,,51.0,18.9,,,51,Moderate,8473.19,,2026-03-25T02:01:32.561583
"Semapa, Cochabamba, Bolivia",Bolivia,-17.3609718,-66.1607009,19.0,34.0,,25.0,,,,25,Good,,,2026-03-25T02:01:41.522802
"La Union, Chile",Chile,-40.286857441758,-73.076710459412,10.4,82.6,164.0,,,,,164,Poor,337.63,,2026-03-25T02:02:27.576368
"Osorno, Chile",Chile,-40.584478665958,-73.11871982209,10.4,82.6,134.0,51.0,,,,134,Poor,1880.14,,2026-03-25T02:02:40.584790
"Padre Las Casas II, Chile",Chile,-38.764767451719,-72.598795682209,10.0,70.6,112.0,53.0,16.2,,1.2,112,Poor,,,2026-03-25T02:02:50.799747
"Las Encinas Temuco, Chile",Chile,-38.74869912298,-72.620788228172,10.0,70.6,82.0,26.0,,,2.2,82,Moderate,2998.6,,2026-03-25T02:02:59.523796
"Alerce, Chile",Chile,-41.399169537038,-72.899522781372,6.0,100.0,80.0,,,,,80,Moderate,538.16,,2026-03-25T02:03:07.802756
"Copiapo Sivica, Chile",Chile,-27.370329154948,-70.323906678352,17.0,77.0,74.0,51.0,,1.5,,74,Moderate,1920.1,,2026-03-25T02:03:11.526088
"Valdivia, Chile",Chile,-39.831316104673,-73.22851282209,10.6,82.3,65.0,20.0,,1.7,13.9,65,Moderate,1910.47,,2026-03-25T02:03:18.804780
"Talagante, Chile",Chile,-33.673752071375,-70.953064737434,19.0,55.0,55.0,27.0,,,,55,Moderate,724.19,,2026-03-25T02:03:25.536749
"Balneario Curanilahue, Chile",Chile,-37.485131692556,-73.331626473541,13.0,66.0,55.0,,,,,55,Moderate,,,2026-03-25T02:03:38.597286
"Coyhaique II, Chile",Chile,-45.579045667164,-72.049964505825,5.0,80.0,55.0,14.0,,1.5,5.3,55,Moderate,632.38,,2026-03-25T02:03:45.557436
"Puren, Chile",Chile,-36.616167751711,-72.093040558483,12.6,85.0,53.0,27.0,,,,53,Moderate,2091.55,,2026-03-25T02:03:49.599367
"Vialidad, Chile",Chile,-45.40680023471,-72.696259617805,5.0,80.0,53.0,,,,,53,Moderate,222.07,,2026-03-25T02:03:53.558702
"US Embassy, Buenos Aires, Argentina",Argentina,-34.5773,-58.4176,25.0,72.9,5.0,,,,,5,Good,39746.84,,2026-03-25T02:04:01.602376
"Cordoba, Buenos Aires, Argentina",Argentina,-34.5995674,-58.3915767,25.0,61.0,,,,,,-,,39746.84,,2026-03-25T02:04:07.563606
"La boca, Buenos Aires, Argentina",Argentina,-34.6344961,-58.3631337,25.0,61.0,,,,,,-,,39746.84,,2026-03-25T02:04:11.609985
"Dock Sud 1, Acumar, Argentina",Argentina,-34.657988,-58.342538,23.8,65.3,,,,,,-,,4363.1,,2026-03-25T02:04:15.467394
"Centenario, Buenos Aires, Argentina",Argentina,-34.635582,-58.5518647,24.0,53.0,,,,,,-,,,,2026-03-25T02:04:25.613138
"La Matanza, Acumar, Argentina",Argentina,-34.6775885,-58.701767,20.2,88.8,,,,,,-,,1713.54,,2026-03-25T02:04:29.566864
"Argentina, Asturias, Spain",Argentina,43.53880000013,-5.6989000001636,12.7,85.0,93.0,43.0,6.4,4.1,0.1,93,Moderate,3247.65,,2026-03-25T02:04:38.834999
