City,Country,Latitude,Longitude,Temperature,Humidity,PM2.5,PM10,NO2,SO2,CO,AQI,Air_Quality_Category,Population_Density,Proximity_to_Industrial_Areas,Timestamp
"Centro de Salud, Apizaco, Tlaxcala, Mexico",Mexico,19.409853333333,-98.150011111111,28.0,69.0,116.0,77.0,0.1,0.1,8.2,116,Poor,630.33,,2026-02-26T01:48:21.382562
"Santa Fe, Jalisco, Mexico",Mexico,20.528912,-103.377146,27.0,13.0,114.0,51.0,21.2,12.7,17.9,114,Poor,1772.02,21.65,2026-02-26T01:48:23.933181
"Secundaria Leyes de Reforma, Aguascalientes, Mexico",Mexico,21.903003362672,-102.28461279505,23.8,23.0,89.0,29.0,9.6,,2.0,89,Moderate,10999.44,,2026-02-26T01:48:27.261142
"Palacio de Gobierno, Tlaxcala, Tlaxcala, Mexico",Mexico,19.317583333333,-98.237305555556,21.0,64.0,81.0,64.0,7.4,,,81,Moderate,611.54,86.25,2026-02-26T01:48:32.539844
"Las Pintas, Guadalajara, Mexico",Mexico,20.5767,-103.32652222222,27.0,13.0,80.0,64.0,15.4,,7.8,80,Moderate,342.07,20.68,2026-02-26T01:48:34.923058
"S. Pedro, Nuevo Leon, Mexico",Mexico,25.6573447,-100.4017501,32.0,17.0,59.0,40.0,24.4,5.3,9.2,78,Moderate,,,2026-02-26T01:48:53.330997
"San Juanico, Mexico",Mexico,20.537489,-100.839905,22.6,34.1,75.0,56.0,21.5,5.6,12.0,75,Moderate,4814.67,,2026-02-26T01:49:06.894277
"Celaya Policia, Celaya, Mexico",Mexico,20.518569711338,-100.81674332276,22.6,34.1,74.0,64.0,35.8,6.5,8.0,74,Moderate,4814.67,3.82,2026-02-26T01:49:09.193925
"Metepec, Toluca, Mexico",Mexico,19.270192914173,-99.595307048355,18.0,36.0,,70.0,8.4,,,70,Moderate,359.12,65.55,2026-02-26T01:49:15.926900
"Hospital General, Mexico",Mexico,20.947924,-101.425774,22.6,34.1,70.0,49.0,6.1,5.4,14.8,70,Moderate,1061.27,34.59,2026-02-26T01:49:18.531952
"Guanajuato Universidad Gto Sede Belen, Mexico",Mexico,21.017583333333,-101.25736111111,27.0,14.0,70.0,,,,,70,Moderate,892.13,47.13,2026-02-26T01:49:21.205597
"Centro, Aguascalientes, Mexico",Mexico,21.883780555556,-102.295825,23.8,23.0,69.0,27.0,0.1,0.1,3.5,69,Moderate,10999.44,,2026-02-26T01:49:23.731780
"Loma Dorada, Guadalajara, Mexico",Mexico,20.629554249053,-103.26392977309,27.0,13.0,69.0,50.0,17.8,,8.4,69,Moderate,5633.33,23.28,2026-02-26T01:49:26.346823
"US Embassy, Guatemala City, Guatemala",Guatemala,14.6069387,-90.5169696,15.0,87.0,61.0,,,,,61,Moderate,31197.09,,2026-02-26T01:49:43.883293
"San Salvador Este, El Salavor",El Salvador,13.71518889,-89.15481944,26.0,50.0,9.0,,,,,-,,4024.59,,2026-02-26T01:50:01.381199
"ITCA, Santa Tecla, El Salavor",El Salvador,13.673168,-89.279399,24.0,62.0,93.0,,,,,93,Moderate,1765.92,,2026-02-26T01:50:04.426896
"UTEC Campus, San Salvador, El Salavor",El Salvador,13.6999671,-89.2010843,30.9,88.8,91.0,,,,,91,Moderate,4024.59,1796.97,2026-02-26T01:50:09.373431
"San Salvador Centro, El Salavor",El Salvador,13.70630556,-89.20011667,22.7,61.1,,,,,,-,,4024.59,,2026-02-26T01:50:24.760845
"San Jose US Embassy, Costa Rica",Costa Rica,9.949488,-84.142876,20.9,69.2,38.0,,,,,38,Good,165.52,1107.57,2026-02-26T01:50:28.001875
"Tunal, Bogota, Colombia",Colombia,4.57619,-74.13093,15.0,69.0,80.0,41.0,3.2,0.9,,80,Moderate,,72.99,2026-02-26T01:50:58.562673
"Guaymaral, Bogota, Colombia",Colombia,4.78374,-74.04417,13.1,70.0,78.0,40.0,8.5,0.2,2.7,78,Moderate,445.63,,2026-02-26T01:51:10.728553
"San Cristobal, Bogota, Colombia",Colombia,4.5725,-74.0836,13.5,67.0,76.0,47.0,4.6,0.4,4.8,76,Moderate,,68.77,2026-02-26T01:51:13.348900
"Fontibon, Bogota, Colombia",Colombia,4.6782472,-74.1438166,15.3,84.2,76.0,48.0,11.2,0.2,7.3,76,Moderate,445.63,81.7,2026-02-26T01:51:15.829228
"MinAmbiente, Bogota, Colombia",Colombia,4.62529,-74.06724,14.5,66.0,70.0,40.0,6.1,0.3,8.3,70,Moderate,104164.41,,2026-02-26T01:51:35.122315
"Movil 7ma, Bogota, Colombia",Colombia,4.645228,-74.06152,15.5,56.7,67.0,41.0,,,,67,Moderate,104164.41,72.79,2026-02-26T01:51:38.242704
"Kennedy, Bogota, Colombia",Colombia,4.6249,-74.16135,13.0,84.2,63.0,22.0,11.9,0.7,3.8,63,Moderate,,,2026-02-26T01:51:53.339883
"Centro de Alto Rendimiento, Bogota, Colombia",Colombia,4.65837,-74.084,14.5,66.0,58.0,25.0,6.7,0.9,4.2,58,Moderate,,75.54,2026-02-26T01:52:05.274959
"Las Ferias, Bogota, Colombia",Colombia,4.6906,-74.08256,14.0,73.0,55.0,17.0,9.9,,7.5,55,Moderate,104164.41,,2026-02-26T01:52:22.394400
"El Camal, Quito, Ecuador",Ecuador,-0.25,-78.51,13.49,93.0,99.0,,63.0,14.9,23.7,99,Moderate,34010.69,465.66,2026-02-26T01:52:32.496109
"Cotocollao, Quito, Ecuador",Ecuador,-0.107777,-78.497222,13.12,93.0,92.0,41.0,42.7,6.9,19.2,92,Moderate,,,2026-02-26T01:52:35.612457
"Centro, Quito, Ecuador",Ecuador,-0.221393,-78.514005,12.31,93.0,90.0,,,8.5,26.0,90,Moderate,34010.69,463.1,2026-02-26T01:52:38.415347
"Belisario, Quito, Ecuador",Ecuador,-0.184719,-78.495986,12.31,93.0,71.0,41.0,35.2,9.0,16.8,71,Moderate,34010.69,458.58,2026-02-26T01:52:41.742833
"Los Chillos, Quito, Ecuador",Ecuador,-0.297062,-78.455248,14.83,93.0,,,,16.5,32.2,1,Good,,467.4,2026-02-26T01:52:50.922649
"estacion01, Cuenca, Ecuador",Ecuador,-2.897,-79.003,23.0,18.0,151.0,,130.2,9.7,4.6,151,Poor,6312.42,754.66,2026-02-26T01:52:53.643126
"estacion02, Cuenca, Ecuador",Ecuador,-2.879789,-78.980213,23.0,18.0,134.0,,130.2,9.7,4.6,142,Poor,6312.42,,2026-02-26T01:53:05.854575
"estacion03, Cuenca, Ecuador",Ecuador,-2.879889,-78.981213,15.0,87.0,51.0,,16.5,4.6,9.5,51,Moderate,,752.02,2026-02-26T01:53:15.453206
"Tumbaco, Quito, Ecuador",Ecuador,-0.214933,-78.403253,15.5,93.0,71.0,,43.0,6.3,17.5,71,Moderate,,456.68,2026-02-26T01:53:22.974860
"Carapungo, Quito, Ecuador",Ecuador,-0.095472,-78.449809,15.86,87.0,94.0,41.0,51.1,10.1,12.4,94,Moderate,,447.45,2026-02-26T01:53:27.891056
"San Borja, Lima, Peru",Peru,-12.10859,-77.00769,25.5,78.0,55.0,59.0,11.9,11.1,15.3,59,Moderate,,1721.69,2026-02-26T01:53:37.839078
"San Martin De Porres, Lima, Peru",Peru,-12.00889,-77.08447,25.5,78.0,57.0,21.0,33.9,2.7,15.5,57,Moderate,,,2026-02-26T01:53:42.223866
"Campo De Marte, Lima, Peru",Peru,-12.07054,-77.04322,25.5,78.0,56.0,20.0,9.8,4.1,17.8,56,Moderate,127188.7,1717.62,2026-02-26T01:53:45.031252
"San Juan De Lurigancho, Lima, Peru",Peru,-11.98164,-76.99925,25.5,78.0,33.0,13.0,7.9,6.2,20.1,33,Good,,1707.63,2026-02-26T01:53:47.819105
"Villa Maria Del Triunfo, Lima, Peru",Peru,-12.16639,-76.92,25.5,78.0,16.0,5.0,7.5,7.5,24.4,24,Good,1018.59,,2026-02-26T01:53:59.851282
"Santa Anita, Lima, Peru",Peru,-12.04302,-76.97144,25.5,78.0,,20.0,7.0,9.1,17.2,20,Good,,1714.32,2026-02-26T01:54:02.533266
"US Embassy, Lima, Peru",Peru,-12.1052081,-76.9709299,23.3,84.0,34.0,,,,,34,Good,,,2026-02-26T01:54:14.745849
"Huachipa, Lima, Peru",Peru,-12.01689,-76.94883,22.2,75.0,193.0,155.0,8.4,33.0,200.9,33,Good,,,2026-02-26T01:54:17.487076
"Ate, Lima, Peru",Peru,-12.02611,-76.91861,22.8,85.3,,,,,,-,,,,2026-02-26T01:54:20.548326
"Carabayllo, Lima, Peru",Peru,-11.90219,-77.03364,25.5,78.0,,,14.9,2.5,8.0,8,Good,,1698.97,2026-02-26T01:54:23.375049
"Puente Piedra, Lima, Peru",Peru,-11.86325,-77.07413,25.5,78.0,57.0,,11.5,6.9,30.6,57,Moderate,,1694.82,2026-02-26T01:54:25.691541
"Velachery Res. Area, Chennai, Chennai, India",Peru,13.0052189,80.2398125,27.0,79.91,119.0,23.0,4.6,2.2,,119,Poor,,1012.82,2026-02-26T01:54:28.126695
"IIT, Chennai, Chennai, India",Peru,12.99251389,80.23744722,30.0,62.0,,,,,,-,,,,2026-02-26T01:54:41.565745
"Fuerza Aerea, Cochabamba, Bolivia",Bolivia,-17.4197854,-66.1685226,19.0,34.0,,49.0,,,,49,Good,8473.19,1751.96,2026-02-26T01:54:55.028760
"Parque Kanata, Cochabamba, Bolivia",Bolivia,-17.4125902,-66.1584437,19.0,34.0,,51.0,18.9,,,51,Moderate,8473.19,1752.65,2026-02-26T01:54:57.461664
"Semapa, Cochabamba, Bolivia",Bolivia,-17.3609718,-66.1607009,19.0,34.0,,25.0,,,,25,Good,8473.19,1758.36,2026-02-26T01:55:00.123717
"Rancagua I, Chile",Chile,-34.162314609087,-70.713919225517,16.2,66.5,76.0,43.0,,1.5,1.0,76,Moderate,2945.9,,2026-02-26T01:55:45.851264
"Coyhaique II, Chile",Chile,-45.579045667164,-72.049964505825,13.0,47.0,72.0,34.0,,4.3,6.2,72,Moderate,632.38,,2026-02-26T01:55:58.075324
"Rancagua II, Chile",Chile,-34.143888375919,-70.737131207664,16.3,66.0,34.0,65.0,,,,65,Moderate,2945.9,,2026-02-26T01:56:11.912653
"Las Encinas Temuco, Chile",Chile,-38.74869912298,-72.620788228172,15.4,46.5,59.0,17.0,,,0.6,59,Moderate,,370.85,2026-02-26T01:56:20.744717
"Talagante, Chile",Chile,-33.673752071375,-70.953064737434,23.0,20.0,57.0,28.0,,,,57,Moderate,724.19,616.62,2026-02-26T01:56:25.859547
"Copiapo Sivica, Chile",Chile,-27.370329154948,-70.323906678352,18.0,88.0,50.0,4.0,,1.5,,50,Good,1920.1,860.2,2026-02-26T01:56:30.897938
"Colegio Pedro Vergara Keller, Chile",Chile,-22.44283906304,-68.932546346863,16.0,59.0,50.0,23.0,,,,50,Good,2006.31,1268.93,2026-02-26T01:56:37.626876
"Puente Alto, Chile",Chile,-33.591390623022,-70.594788,23.0,20.0,25.0,46.0,6.5,,2.5,46,Good,,582.9,2026-02-26T01:56:41.516729
"Puren, Chile",Chile,-36.616167751711,-72.093040558483,13.8,95.0,46.0,33.0,,,,46,Good,2091.55,,2026-02-26T01:56:55.208949
"Liceo Polivalente, Chile",Chile,-36.601713211434,-72.958522830688,13.8,94.8,46.0,26.0,1.0,0.6,,46,Good,538.73,610.0,2026-02-26T01:56:59.438171
"La Serena, Chile",Chile,-29.933006518748,-71.261966365967,21.6,54.0,42.0,,,,,42,Good,2487.68,,2026-02-26T01:57:11.483318
"US Embassy, Buenos Aires, Argentina",Argentina,-34.5773,-58.4176,25.0,72.9,5.0,,,,,5,Good,39746.84,95.38,2026-02-26T01:57:19.751704
"Cordoba, Buenos Aires, Argentina",Argentina,-34.5995674,-58.3915767,25.0,61.0,,,,,,-,,39746.84,98.13,2026-02-26T01:57:22.550954
"La boca, Buenos Aires, Argentina",Argentina,-34.6344961,-58.3631337,25.0,61.0,,,,,,-,,39746.84,101.41,2026-02-26T01:57:25.297260
"Dock Sud 1, Acumar, Argentina",Argentina,-34.657988,-58.342538,23.8,65.3,,,,,,-,,4363.1,103.8,2026-02-26T01:57:28.203233
"Centenario, Buenos Aires, Argentina",Argentina,-34.635582,-58.5518647,24.0,53.0,,,,,,-,,1532.29,,2026-02-26T01:57:40.744769
"La Matanza, Acumar, Argentina",Argentina,-34.6775885,-58.701767,20.2,88.8,,,,,,-,,1713.54,72.79,2026-02-26T01:57:43.684272
"Argentina, Asturias, Spain",Argentina,43.53880000013,-5.6989000001636,15.8,73.5,61.0,25.0,7.8,2.1,0.1,61,Moderate,3247.65,6061.94,2026-02-26T01:57:47.585725
