City,Country,Latitude,Longitude,Temperature,Humidity,PM2.5,PM10,NO2,SO2,CO,AQI,Air_Quality_Category,Population_Density,Proximity_to_Industrial_Areas,Timestamp
"Las Pintas, Guadalajara, Mexico",Mexico,20.5767,-103.32652222222,23.0,64.0,73.0,41.0,9.6,5.4,7.6,73,Moderate,,,2026-06-07T03:30:07.186865
"T-21, Mexico",Mexico,21.108664,-101.688614,28.0,32.0,69.0,28.0,,3.6,13.0,69,Moderate,,,2026-06-07T03:30:13.775785
"Facultad De Medicina, Mexico",Mexico,21.133545,-101.679543,28.0,32.0,69.0,22.0,5.9,3.8,11.6,69,Moderate,,,2026-06-07T03:30:17.187517
"Miravalle, Guadalajara, Mexico",Mexico,20.61504997567,-103.34343019128,23.0,64.0,63.0,46.0,16.4,1.5,7.1,63,Moderate,,,2026-06-07T03:30:21.775452
"DIF, Mexico",Mexico,20.558094,-101.204941,22.7,66.0,63.0,30.0,5.5,8.5,24.7,63,Moderate,,,2026-06-07T03:30:28.188193
"Santa Fe, Jalisco, Mexico",Mexico,20.528912,-103.377146,23.0,64.0,61.0,23.0,10.4,3.6,6.0,61,Moderate,,,2026-06-07T03:30:32.776170
"S. Pedro, Nuevo Leon, Mexico",Mexico,25.6573447,-100.4017501,27.2,72.5,61.0,29.0,8.2,3.8,10.0,61,Moderate,,,2026-06-07T03:30:36.188508
"Durango, Durango, Mexico",Mexico,24.03447,-104.64503,17.2,68.0,61.0,6.0,,,,61,Moderate,,,2026-06-07T03:30:39.308720
"Metrorrey, Nuevo Leon, Mexico",Mexico,25.7779954,-100.3775906,27.2,72.5,60.0,31.0,11.0,6.6,7.8,60,Moderate,,,2026-06-07T03:30:42.776868
"Centro, Jalisco, Mexico",Mexico,20.67236666666667,-103.33335883333334,23.0,64.0,59.0,35.0,14.2,4.0,8.6,59,Moderate,,,2026-06-07T03:30:48.189424
"US Embassy, Guatemala City, Guatemala",Guatemala,14.6069387,-90.5169696,15.0,87.0,61.0,,,,,61,Moderate,,,2026-06-07T03:30:57.190144
"San Salvador Este, El Salavor",El Salvador,13.71518889,-89.15481944,25.0,88.0,9.0,,,,,-,,,,2026-06-07T03:31:03.778499
"ITCA, Santa Tecla, El Salavor",El Salvador,13.673168,-89.279399,24.0,62.0,93.0,,,,,93,Moderate,,,2026-06-07T03:31:07.190944
"UTEC Campus, San Salvador, El Salavor",El Salvador,13.6999671,-89.2010843,30.9,88.8,91.0,,,,,91,Moderate,,,2026-06-07T03:31:10.310852
"San Salvador Centro, El Salavor",El Salvador,13.70630556,-89.20011667,23.8,81.0,,,,,,-,,,,2026-06-07T03:31:15.191492
"San Jose US Embassy, Costa Rica",Costa Rica,9.949488,-84.142876,20.9,69.2,38.0,,,,,38,Good,,,2026-06-07T03:31:19.779534
"Fontibon, Bogota, Colombia",Colombia,4.6782472,-74.1438166,14.1,76.1,56.0,27.0,4.9,0.9,4.0,56,Moderate,,,2026-06-07T03:32:00.194355
"MinAmbiente, Bogota, Colombia",Colombia,4.62529,-74.06724,11.9,79.0,55.0,15.0,3.2,0.2,6.3,55,Moderate,,,2026-06-07T03:32:03.782362
"Las Ferias, Bogota, Colombia",Colombia,4.6906,-74.08256,14.2,72.0,46.0,10.0,6.4,,7.8,46,Good,,,2026-06-07T03:32:15.195418
"Carvajal - Sevillana, Bogota, Colombia",Colombia,4.5958,-74.14855,15.1,100.0,42.0,,,1.9,6.8,42,Good,,,2026-06-07T03:32:21.783716
"Tunal, Bogota, Colombia",Colombia,4.57619,-74.13093,12.0,69.0,42.0,7.0,4.3,0.5,,42,Good,,,2026-06-07T03:32:25.195932
"Movil 7ma, Bogota, Colombia",Colombia,4.645228,-74.06152,15.6,60.8,38.0,34.0,,,,38,Good,,,2026-06-07T03:32:29.784063
"Kennedy, Bogota, Colombia",Colombia,4.6249,-74.16135,12.0,76.1,16.0,28.0,6.2,0.8,7.3,28,Good,,,2026-06-07T03:32:33.196651
"San Cristobal, Bogota, Colombia",Colombia,4.5725,-74.0836,12.1,75.0,25.0,17.0,2.4,0.4,3.6,25,Good,,,2026-06-07T03:32:36.318114
"Centro, Quito, Ecuador",Ecuador,-0.221393,-78.514005,12.7,93.0,83.0,,43.9,7.2,19.0,83,Moderate,,,2026-06-07T03:32:42.197226
"El Camal, Quito, Ecuador",Ecuador,-0.25,-78.51,13.48,93.0,67.0,,38.5,3.0,12.3,67,Moderate,,,2026-06-07T03:32:45.785091
"Cotocollao, Quito, Ecuador",Ecuador,-0.107777,-78.497222,12.8,93.0,66.0,,31.4,4.1,7.7,66,Moderate,,,2026-06-07T03:32:49.319027
"Belisario, Quito, Ecuador",Ecuador,-0.184719,-78.495986,12.7,93.0,45.0,,34.5,2.7,13.2,45,Good,,,2026-06-07T03:32:53.197996
"Los Chillos, Quito, Ecuador",Ecuador,-0.297062,-78.455248,14.76,93.0,,,22.9,11.3,11.6,8,Good,,,2026-06-07T03:32:56.786874
"estacion01, Cuenca, Ecuador",Ecuador,-2.897,-79.003,23.0,18.0,151.0,,130.2,9.7,4.6,151,Poor,,,2026-06-07T03:33:00.319659
"estacion02, Cuenca, Ecuador",Ecuador,-2.879789,-78.980213,23.0,18.0,134.0,,130.2,9.7,4.6,142,Poor,,,2026-06-07T03:33:04.198758
"estacion03, Cuenca, Ecuador",Ecuador,-2.879889,-78.981213,15.0,87.0,51.0,,16.5,4.6,9.5,51,Moderate,,,2026-06-07T03:33:07.787556
"Tumbaco, Quito, Ecuador",Ecuador,-0.214933,-78.403253,15.58,93.0,51.0,,18.2,4.4,,51,Moderate,,,2026-06-07T03:33:11.320501
"Carapungo, Quito, Ecuador",Ecuador,-0.095472,-78.449809,13.05,93.0,68.0,,15.5,4.4,8.0,68,Moderate,,,2026-06-07T03:33:16.199665
"San Juan De Lurigancho, Lima, Peru",Peru,-11.98164,-76.99925,21.1,82.0,70.0,30.0,12.4,6.2,8.9,70,Moderate,,,2026-06-07T03:33:19.788479
"San Martin De Porres, Lima, Peru",Peru,-12.00889,-77.08447,21.1,82.0,67.0,27.0,12.2,5.8,6.6,67,Moderate,,,2026-06-07T03:33:23.321417
"Campo De Marte, Lima, Peru",Peru,-12.07054,-77.04322,21.1,82.0,59.0,22.0,10.8,6.8,26.1,59,Moderate,,,2026-06-07T03:33:27.200447
"San Borja, Lima, Peru",Peru,-12.10859,-77.00769,21.1,82.0,58.0,37.0,14.5,9.5,7.9,58,Moderate,,,2026-06-07T03:33:30.789227
"Villa Maria Del Triunfo, Lima, Peru",Peru,-12.16639,-76.92,21.1,82.0,37.0,12.0,8.7,5.4,15.8,37,Good,,,2026-06-07T03:33:34.322450
"Santa Anita, Lima, Peru",Peru,-12.04302,-76.97144,21.1,82.0,,32.0,15.9,5.5,9.1,32,Good,,,2026-06-07T03:33:38.201132
"US Embassy, Lima, Peru",Peru,-12.1052081,-76.9709299,23.3,84.0,34.0,,,,,34,Good,,,2026-06-07T03:33:41.322822
"Huachipa, Lima, Peru",Peru,-12.01689,-76.94883,22.2,75.0,193.0,155.0,8.4,33.0,200.9,33,Good,,,2026-06-07T03:33:45.201567
"Ate, Lima, Peru",Peru,-12.02611,-76.91861,22.8,85.3,,,,,,-,,,,2026-06-07T03:33:48.791129
"Carabayllo, Lima, Peru",Peru,-11.90219,-77.03364,21.1,82.0,,,11.9,2.2,6.8,7,Good,,,2026-06-07T03:33:52.201895
"Puente Piedra, Lima, Peru",Peru,-11.86325,-77.07413,21.1,82.0,80.0,,22.5,3.5,13.8,80,Moderate,,,2026-06-07T03:33:55.202201
"Velachery Res. Area, Chennai, Chennai, India",Peru,13.0052189,80.2398125,33.3,42.61000000000001,61.0,45.0,5.2,2.4,,45,Good,,,2026-06-07T03:33:59.791765
"IIT, Chennai, Chennai, India",Peru,12.99251389,80.23744722,30.0,62.0,,,,,,-,,,,2026-06-07T03:34:03.324252
"Parque Kanata, Cochabamba, Bolivia",Bolivia,-17.4125902,-66.1584437,19.0,34.0,,51.0,18.9,,,51,Moderate,,,2026-06-07T03:34:19.204003
"Fuerza Aerea, Cochabamba, Bolivia",Bolivia,-17.4197854,-66.1685226,19.0,34.0,,49.0,,,,49,Good,,,2026-06-07T03:34:22.325436
"Semapa, Cochabamba, Bolivia",Bolivia,-17.3609718,-66.1607009,19.0,34.0,,25.0,,,,25,Good,,,2026-06-07T03:34:25.793516
"Coyhaique, Chile",Chile,-45.57996447948,-72.061125987766,-1.0,92.0,359.0,180.0,,,,359,Hazardous,,,2026-06-07T03:35:09.207296
"Coyhaique II, Chile",Chile,-45.579045667164,-72.049964505825,-1.0,92.0,309.0,152.0,,3.9,56.7,309,Hazardous,,,2026-06-07T03:35:12.796774
"Las Encinas Temuco, Chile",Chile,-38.74869912298,-72.620788228172,9.6,100.0,234.0,127.0,,,25.5,234,Poor,,,2026-06-07T03:35:17.329414
"Liceo Polivalente, Chile",Chile,-36.601713211434,-72.958522830688,9.7,98.7,200.0,109.0,17.2,1.1,,200,Poor,,,2026-06-07T03:35:24.208166
"Puren, Chile",Chile,-36.616167751711,-72.093040558483,10.0,98.8,197.0,108.0,,,,197,Poor,,,2026-06-07T03:35:28.798109
"Punteras, Chile",Chile,-36.923329602986,-73.036132300941,10.0,93.0,192.0,99.0,11.2,1.6,,192,Poor,,,2026-06-07T03:35:32.208721
"Valdivia, Chile",Chile,-39.831316104673,-73.22851282209,11.1,95.5,189.0,100.0,,2.7,28.6,189,Poor,,,2026-06-07T03:35:37.330724
"San Fernando, Chile",Chile,-27.393267718517,-70.298615435165,11.0,93.0,187.0,99.0,,,,187,Poor,,,2026-06-07T03:35:41.209270
"Consultorio - San Vicente, Chile",Chile,-36.723695141848,-73.123658865174,10.0,93.0,184.0,96.0,16.5,0.7,,184,Poor,,,2026-06-07T03:35:46.331387
"Kingston College, Chile",Chile,-36.784653741124,-73.052063025795,10.0,93.0,175.0,80.0,6.7,4.3,16.0,175,Poor,,,2026-06-07T03:35:49.799658
"La Florida, Chile",Chile,-33.516630362266,-70.588123961971,7.0,93.0,174.0,109.0,33.7,6.4,29.5,174,Poor,,,2026-06-07T03:35:53.209923
"Padre Las Casas II, Chile",Chile,-38.764767451719,-72.598795682209,9.6,100.0,171.0,77.0,19.1,,19.4,171,Poor,,,2026-06-07T03:35:58.210471
"Puente Alto, Chile",Chile,-33.591390623022,-70.594788,7.0,93.0,169.0,106.0,33.7,,22.7,169,Poor,,,2026-06-07T03:36:01.800393
"US Embassy, Buenos Aires, Argentina",Argentina,-34.5773,-58.4176,25.0,72.9,5.0,,,,,5,Good,,,2026-06-07T03:36:07.332837
"Centenario, Buenos Aires, Argentina",Argentina,-34.635582,-58.5518647,24.0,53.0,,,,,,-,,,,2026-06-07T03:36:10.211195
"Cordoba, Buenos Aires, Argentina",Argentina,-34.5995674,-58.3915767,25.0,61.0,,,,,,-,,,,2026-06-07T03:36:13.801308
"La boca, Buenos Aires, Argentina",Argentina,-34.6344961,-58.3631337,25.0,61.0,,,,,,-,,,,2026-06-07T03:36:17.333477
"Dock Sud 1, Acumar, Argentina",Argentina,-34.657988,-58.342538,23.8,65.3,,,,,,-,,,,2026-06-07T03:36:20.211719
"La Matanza, Acumar, Argentina",Argentina,-34.6775885,-58.701767,20.2,88.8,,,,,,-,,,,2026-06-07T03:36:23.211957
"Argentina, Asturias, Spain",Argentina,43.53880000013,-5.6989000001636,14.2,82.6,17.0,31.0,2.8,1.1,0.1,31,Good,,,2026-06-07T03:36:26.802052
