City,Country,Latitude,Longitude,Temperature,Humidity,PM2.5,PM10,NO2,SO2,CO,AQI,Air_Quality_Category,Population_Density,Proximity_to_Industrial_Areas,Timestamp
"Durango, Durango, Mexico",Mexico,24.03447,-104.64503,23.3,11.0,109.0,1.0,,,0.1,109,Poor,7844.03,,2026-03-16T02:03:49.899003
"Palacio de Gobierno, Tlaxcala, Tlaxcala, Mexico",Mexico,19.317583333333,-98.237305555556,25.0,94.0,90.0,51.0,13.6,,,90,Moderate,611.54,,2026-03-16T02:03:55.516949
"Santa Fe, Jalisco, Mexico",Mexico,20.528912,-103.377146,28.0,12.0,82.0,28.0,9.4,3.4,8.5,82,Moderate,1772.02,,2026-03-16T02:04:03.899683
"Las Pintas, Guadalajara, Mexico",Mexico,20.5767,-103.32652222222,28.0,12.0,82.0,34.0,3.0,,3.3,82,Moderate,,,2026-03-16T02:04:14.900874
"Secundaria Leyes de Reforma, Aguascalientes, Mexico",Mexico,21.903003362672,-102.28461279505,24.4,12.0,80.0,17.0,4.8,,3.4,80,Moderate,10999.44,,2026-03-16T02:04:22.518561
"San Juanico, Mexico",Mexico,20.537489,-100.839905,23.2,23.6,66.0,41.0,9.2,6.1,6.4,66,Moderate,4814.67,,2026-03-16T02:04:33.902419
"Palacio Municipal Cuautla, Cuautla, Morelos, Mexico",Mexico,18.812986944444,-98.955305833333,22.0,33.0,65.0,,13.1,2.0,8.0,65,Moderate,,,2026-03-16T02:04:43.904300
"Loma Dorada, Guadalajara, Mexico",Mexico,20.629554249053,-103.26392977309,28.0,12.0,65.0,44.0,9.1,,6.8,65,Moderate,5633.33,,2026-03-16T02:04:50.520701
"Tulancingo, Hidalgo, Mexico",Mexico,20.08525,-98.366638888889,25.0,94.0,65.0,41.0,3.1,6.9,17.8,65,Moderate,1351.71,,2026-03-16T02:04:56.905430
"US Embassy, Guatemala City, Guatemala",Guatemala,14.6069387,-90.5169696,15.0,87.0,61.0,,,,,61,Moderate,,,2026-03-16T02:05:08.906520
"San Salvador Este, El Salavor",El Salvador,13.71518889,-89.15481944,25.0,78.0,9.0,,,,,-,,4024.59,,2026-03-16T02:05:15.523302
"ITCA, Santa Tecla, El Salavor",El Salvador,13.673168,-89.279399,24.0,62.0,93.0,,,,,93,Moderate,1480.89,,2026-03-16T02:05:18.907426
"UTEC Campus, San Salvador, El Salavor",El Salvador,13.6999671,-89.2010843,30.9,88.8,91.0,,,,,91,Moderate,4024.59,,2026-03-16T02:05:22.523417
"San Salvador Centro, El Salavor",El Salvador,13.70630556,-89.20011667,23.3,78.9,,,,,,-,,4024.59,,2026-03-16T02:05:28.907911
"San Jose US Embassy, Costa Rica",Costa Rica,9.949488,-84.142876,20.9,69.2,38.0,,,,,38,Good,,,2026-03-16T02:05:38.524726
"Tunal, Bogota, Colombia",Colombia,4.57619,-74.13093,16.0,67.0,76.0,42.0,15.0,0.9,,76,Moderate,,,2026-03-16T02:06:12.795552
"Centro de Alto Rendimiento, Bogota, Colombia",Colombia,4.65837,-74.084,15.4,74.0,67.0,31.0,5.5,0.4,3.2,67,Moderate,104164.41,,2026-03-16T02:06:27.021781
"Fontibon, Bogota, Colombia",Colombia,4.6782472,-74.1438166,15.7,74.0,63.0,23.0,4.4,0.3,4.7,63,Moderate,445.63,,2026-03-16T02:06:37.798126
"MinAmbiente, Bogota, Colombia",Colombia,4.62529,-74.06724,15.4,74.0,61.0,33.0,7.0,0.3,4.9,61,Moderate,104164.41,,2026-03-16T02:06:49.575503
"Las Ferias, Bogota, Colombia",Colombia,4.6906,-74.08256,16.2,68.0,61.0,16.0,5.9,,3.8,61,Moderate,104164.41,,2026-03-16T02:06:52.799320
"San Cristobal, Bogota, Colombia",Colombia,4.5725,-74.0836,14.5,73.0,63.0,21.0,3.4,0.8,3.3,63,Moderate,,,2026-03-16T02:07:03.025441
"Carvajal - Sevillana, Bogota, Colombia",Colombia,4.5958,-74.14855,16.0,100.0,59.0,,,0.4,4.0,59,Moderate,,,2026-03-16T02:07:11.636537
"Belisario, Quito, Ecuador",Ecuador,-0.184719,-78.495986,13.16,77.0,66.0,3.0,22.2,13.6,6.3,66,Moderate,34010.69,,2026-03-16T02:07:17.577742
"Centro, Quito, Ecuador",Ecuador,-0.221393,-78.514005,13.16,77.0,44.0,,9.1,1.5,19.9,44,Good,34010.69,,2026-03-16T02:07:21.637478
"Los Chillos, Quito, Ecuador",Ecuador,-0.297062,-78.455248,62.35,77.0,,,8.3,2.6,5.5,22,Good,,,2026-03-16T02:07:26.579312
"Cotocollao, Quito, Ecuador",Ecuador,-0.107777,-78.497222,13.53,77.0,20.0,3.0,16.3,2.0,4.5,20,Good,,,2026-03-16T02:07:34.644595
"El Camal, Quito, Ecuador",Ecuador,-0.25,-78.51,13.77,77.0,14.0,,20.2,1.3,8.8,16,Good,34010.69,,2026-03-16T02:07:44.805131
"estacion01, Cuenca, Ecuador",Ecuador,-2.897,-79.003,23.0,18.0,151.0,,130.2,9.7,4.6,151,Poor,6312.42,,2026-03-16T02:07:51.611621
"estacion02, Cuenca, Ecuador",Ecuador,-2.879789,-78.980213,23.0,18.0,134.0,,130.2,9.7,4.6,142,Poor,6312.42,,2026-03-16T02:07:54.806325
"estacion03, Cuenca, Ecuador",Ecuador,-2.879889,-78.981213,15.0,87.0,51.0,,16.5,4.6,9.5,51,Moderate,6312.42,,2026-03-16T02:07:58.641489
"Tumbaco, Quito, Ecuador",Ecuador,-0.214933,-78.403253,17.09,77.0,12.0,,12.7,2.8,11.9,21,Good,,,2026-03-16T02:08:03.760593
"Carapungo, Quito, Ecuador",Ecuador,-0.095472,-78.449809,18.95,59.0,5.0,3.0,3.7,3.9,6.3,26,Good,,,2026-03-16T02:08:17.032499
"Campo De Marte, Lima, Peru",Peru,-12.07054,-77.04322,24.4,75.0,66.0,26.0,10.8,8.5,16.5,66,Moderate,127188.7,,2026-03-16T02:08:27.033877
"San Martin De Porres, Lima, Peru",Peru,-12.00889,-77.08447,24.4,75.0,60.0,23.0,17.2,1.3,10.1,60,Moderate,,,2026-03-16T02:08:32.774857
"San Borja, Lima, Peru",Peru,-12.10859,-77.00769,24.4,75.0,56.0,42.0,11.7,33.6,12.3,56,Moderate,,,2026-03-16T02:08:41.812769
"San Juan De Lurigancho, Lima, Peru",Peru,-11.98164,-76.99925,24.4,75.0,56.0,32.0,10.0,4.9,23.7,56,Moderate,,,2026-03-16T02:08:45.254454
"Santa Anita, Lima, Peru",Peru,-12.04302,-76.97144,24.4,75.0,,33.0,12.2,8.1,14.3,33,Good,,,2026-03-16T02:08:51.814308
"Villa Maria Del Triunfo, Lima, Peru",Peru,-12.16639,-76.92,24.4,75.0,59.0,57.0,8.6,23.5,32.7,33,Good,1018.59,,2026-03-16T02:08:55.596857
"US Embassy, Lima, Peru",Peru,-12.1052081,-76.9709299,23.3,84.0,34.0,,,,,34,Good,,,2026-03-16T02:08:59.171279
"Huachipa, Lima, Peru",Peru,-12.01689,-76.94883,22.2,75.0,193.0,155.0,8.4,33.0,200.9,33,Good,,,2026-03-16T02:09:03.041554
"Ate, Lima, Peru",Peru,-12.02611,-76.91861,22.8,85.3,,,,,,-,,,,2026-03-16T02:09:06.265376
"Carabayllo, Lima, Peru",Peru,-11.90219,-77.03364,24.4,75.0,,,12.7,7.3,13.9,14,Good,,,2026-03-16T02:09:13.328450
"Puente Piedra, Lima, Peru",Peru,-11.86325,-77.07413,24.4,75.0,68.0,,13.0,7.3,29.8,68,Moderate,,,2026-03-16T02:09:17.272226
"Velachery Res. Area, Chennai, Chennai, India",Peru,13.0052189,80.2398125,25.5,81.265,127.0,33.0,5.0,2.3,,127,Poor,,,2026-03-16T02:09:22.044866
"IIT, Chennai, Chennai, India",Peru,12.99251389,80.23744722,30.0,62.0,,,,,,-,,,,2026-03-16T02:09:27.270654
"Fuerza Aerea, Cochabamba, Bolivia",Bolivia,-17.4197854,-66.1685226,19.0,34.0,,49.0,,,,49,Good,8473.19,,2026-03-16T02:09:41.333231
"Parque Kanata, Cochabamba, Bolivia",Bolivia,-17.4125902,-66.1584437,19.0,34.0,,51.0,18.9,,,51,Moderate,8473.19,,2026-03-16T02:09:44.868556
"Semapa, Cochabamba, Bolivia",Bolivia,-17.3609718,-66.1607009,19.0,34.0,,25.0,,,,25,Good,8473.19,,2026-03-16T02:09:49.225960
"Vialidad, Chile",Chile,-45.40680023471,-72.696259617805,6.0,81.0,122.0,,,,,122,Poor,222.07,,2026-03-16T02:10:29.786503
"Balneario Curanilahue, Chile",Chile,-37.485131692556,-73.331626473541,14.0,93.0,93.0,,,,,93,Moderate,383.74,,2026-03-16T02:10:34.068536
"Coyhaique, Chile",Chile,-45.57996447948,-72.061125987766,6.0,81.0,85.0,33.0,,,,85,Moderate,,,2026-03-16T02:10:46.787693
"Copiapo Sivica, Chile",Chile,-27.370329154948,-70.323906678352,17.0,82.0,72.0,41.0,,1.5,,72,Moderate,,,2026-03-16T02:10:57.081174
"Alerce, Chile",Chile,-41.399169537038,-72.899522781372,12.0,76.0,70.0,,,,,70,Moderate,538.16,,2026-03-16T02:11:01.156602
"Osorno, Chile",Chile,-40.584478665958,-73.11871982209,12.7,80.6,70.0,34.0,,,,70,Moderate,1880.14,,2026-03-16T02:11:04.553935
"Parque O'Higgins, Chile",Chile,-33.464142,-70.660797,19.0,42.0,50.0,68.0,20.9,,0.8,68,Moderate,78165.35,,2026-03-16T02:11:08.789635
"La Union, Chile",Chile,-40.286857441758,-73.076710459412,12.6,81.0,65.0,,,,,65,Moderate,337.63,,2026-03-16T02:11:19.083430
"Padre Las Casas II, Chile",Chile,-38.764767451719,-72.598795682209,13.0,78.2,63.0,25.0,13.1,,2.0,63,Moderate,2998.6,,2026-03-16T02:11:23.236107
"Coyhaique II, Chile",Chile,-45.579045667164,-72.049964505825,6.0,81.0,61.0,20.0,,4.0,4.9,61,Moderate,632.38,,2026-03-16T02:11:26.556163
"Valdivia, Chile",Chile,-39.831316104673,-73.22851282209,12.7,80.6,59.0,22.0,,1.8,4.9,59,Moderate,1910.47,,2026-03-16T02:11:30.163474
"Universidad de Talca, Chile",Chile,-35.406582744695,-71.633396474869,21.3,59.5,9.0,53.0,,,,53,Moderate,,,2026-03-16T02:11:41.237800
"Punta Arenas, Chile",Chile,-53.158295492238,-70.921497482453,6.0,81.0,50.0,,,,,50,Good,1571.22,,2026-03-16T02:11:46.878516
"Puente Alto, Chile",Chile,-33.591390623022,-70.594788,19.0,42.0,21.0,47.0,11.2,,2.6,47,Good,,,2026-03-16T02:11:53.093252
"US Embassy, Buenos Aires, Argentina",Argentina,-34.5773,-58.4176,25.0,72.9,5.0,,,,,5,Good,39746.84,,2026-03-16T02:12:01.775529
"Cordoba, Buenos Aires, Argentina",Argentina,-34.5995674,-58.3915767,25.0,61.0,,,,,,-,,39746.84,,2026-03-16T02:12:05.926091
"La boca, Buenos Aires, Argentina",Argentina,-34.6344961,-58.3631337,25.0,61.0,,,,,,-,,39746.84,,2026-03-16T02:12:09.381345
"Dock Sud 1, Acumar, Argentina",Argentina,-34.657988,-58.342538,23.8,65.3,,,,,,-,,4363.1,,2026-03-16T02:12:18.100955
"Centenario, Buenos Aires, Argentina",Argentina,-34.635582,-58.5518647,24.0,53.0,,,,,,-,,1532.29,,2026-03-16T02:12:21.929491
"La Matanza, Acumar, Argentina",Argentina,-34.6775885,-58.701767,20.2,88.8,,,,,,-,,1713.54,,2026-03-16T02:12:25.383804
"Argentina, Asturias, Spain",Argentina,43.53880000013,-5.6989000001636,12.2,88.0,30.0,17.0,3.7,2.1,0.1,30,Good,,,2026-03-16T02:12:35.782669
