City,Country,Latitude,Longitude,Temperature,Humidity,PM2.5,PM10,NO2,SO2,CO,AQI,Air_Quality_Category,Population_Density,Proximity_to_Industrial_Areas,Timestamp
"DIF, Mexico",Mexico,20.558094,-101.204941,19.6,83.8,88.0,58.0,10.6,8.6,26.9,88,Moderate,,,2026-06-12T03:33:33.753130
"Abasolo Presidencia Municipal, Mexico",Mexico,20.425277777778,-101.19805555556,22.0,68.0,88.0,,,,,88,Moderate,,,2026-06-12T03:33:37.029398
"Santa Fe, Jalisco, Mexico",Mexico,20.528912,-103.377146,25.0,57.0,85.0,65.0,18.1,3.7,15.4,85,Moderate,,,2026-06-12T03:33:40.468670
"Secundaria Leyes de Reforma, Aguascalientes, Mexico",Mexico,21.903003362672,-102.28461279505,21.6,71.0,76.0,63.0,10.0,,,76,Moderate,,,2026-06-12T03:33:43.754406
"Centro, Aguascalientes, Mexico",Mexico,21.883780555556,-102.295825,21.6,71.0,72.0,18.0,0.1,0.1,1.8,72,Moderate,,,2026-06-12T03:33:49.031387
"CICEG, Mexico",Mexico,21.10343,-101.636345,19.7,83.2,70.0,26.0,5.6,7.4,19.5,70,Moderate,,,2026-06-12T03:33:52.756622
"Cruz Roja, Mexico",Mexico,20.578896,-101.199211,20.7,77.4,64.0,37.0,11.4,16.1,19.7,64,Moderate,,,2026-06-12T03:34:00.757757
"Miravalle, Guadalajara, Mexico",Mexico,20.61504997567,-103.34343019128,25.0,57.0,57.0,25.0,10.1,1.1,6.4,57,Moderate,,,2026-06-12T03:34:05.032893
"Vallarta, Guadalajara, Mexico",Mexico,20.680450840176,-103.39873310432,25.0,57.0,56.0,22.0,,,,56,Moderate,,,2026-06-12T03:34:11.759382
"Atemajac, Jalisco, Mexico",Mexico,20.718180277777776,-103.35549144444444,25.0,57.0,55.0,18.0,8.0,3.7,7.4,55,Moderate,,,2026-06-12T03:34:15.036187
"S. Pedro, Nuevo Leon, Mexico",Mexico,25.6573447,-100.4017501,29.5,64.5,55.0,21.0,2.7,3.9,4.8,55,Moderate,,,2026-06-12T03:34:18.470827
"Oblatos, Jalisco, Mexico",Mexico,20.699048277777777,-103.29667683333334,25.0,57.0,55.0,27.0,6.8,3.7,5.8,55,Moderate,,,2026-06-12T03:34:23.762075
"Las Pintas, Guadalajara, Mexico",Mexico,20.5767,-103.32652222222,25.0,57.0,25.0,54.0,6.8,6.1,6.6,54,Moderate,,,2026-06-12T03:34:29.037832
"US Embassy, Guatemala City, Guatemala",Guatemala,14.6069387,-90.5169696,15.0,87.0,61.0,,,,,61,Moderate,,,2026-06-12T03:34:35.261334
"San Salvador Este, El Salavor",El Salvador,13.71518889,-89.15481944,21.6,96.0,9.0,,,,,-,,,,2026-06-12T03:34:41.340472
"ITCA, Santa Tecla, El Salavor",El Salvador,13.673168,-89.279399,24.0,62.0,93.0,,,,,93,Moderate,,,2026-06-12T03:34:44.261823
"UTEC Campus, San Salvador, El Salavor",El Salvador,13.6999671,-89.2010843,30.9,88.8,91.0,,,,,91,Moderate,,,2026-06-12T03:34:47.980871
"San Salvador Centro, El Salavor",El Salvador,13.70630556,-89.20011667,21.6,96.0,,,,,,-,,,,2026-06-12T03:34:53.262460
"San Jose US Embassy, Costa Rica",Costa Rica,9.949488,-84.142876,20.9,69.2,38.0,,,,,38,Good,,,2026-06-12T03:34:57.341521
"Fontibon, Bogota, Colombia",Colombia,4.6782472,-74.1438166,16.7,62.6,69.0,47.0,10.0,0.5,4.8,69,Moderate,,,2026-06-12T03:35:30.264691
"Carvajal - Sevillana, Bogota, Colombia",Colombia,4.5958,-74.14855,17.0,82.0,65.0,,,1.2,12.9,65,Moderate,,,2026-06-12T03:35:33.343814
"Tunal, Bogota, Colombia",Colombia,4.57619,-74.13093,15.0,65.0,42.0,18.0,5.4,0.4,,42,Good,,,2026-06-12T03:35:54.266218
"Movil 7ma, Bogota, Colombia",Colombia,4.645228,-74.06152,16.9,52.1,30.0,40.0,,,,40,Good,,,2026-06-12T03:35:59.345493
"San Cristobal, Bogota, Colombia",Colombia,4.5725,-74.0836,14.2,65.0,38.0,11.0,3.3,0.5,3.7,38,Good,,,2026-06-12T03:36:02.266762
"MinAmbiente, Bogota, Colombia",Colombia,4.62529,-74.06724,13.8,60.0,25.0,14.0,0.9,0.6,5.5,25,Good,,,2026-06-12T03:36:07.346133
"Las Ferias, Bogota, Colombia",Colombia,4.6906,-74.08256,16.2,57.0,25.0,13.0,6.5,,4.7,25,Good,,,2026-06-12T03:36:10.267355
"Kennedy, Bogota, Colombia",Colombia,4.6249,-74.16135,15.0,62.6,12.0,25.0,8.1,1.4,8.8,25,Good,,,2026-06-12T03:36:13.982128
"El Camal, Quito, Ecuador",Ecuador,-0.25,-78.51,13.9,76.0,83.0,,46.6,7.6,24.3,83,Moderate,,,2026-06-12T03:36:19.268147
"Centro, Quito, Ecuador",Ecuador,-0.221393,-78.514005,13.67,76.0,52.0,,35.7,3.3,14.4,52,Moderate,,,2026-06-12T03:36:22.347180
"Cotocollao, Quito, Ecuador",Ecuador,-0.107777,-78.497222,13.94,76.0,35.0,,29.0,4.0,8.4,35,Good,,,2026-06-12T03:36:25.982855
"Belisario, Quito, Ecuador",Ecuador,-0.184719,-78.495986,13.67,76.0,2.0,,29.2,2.6,7.0,10,Good,,,2026-06-12T03:36:29.268616
"Los Chillos, Quito, Ecuador",Ecuador,-0.297062,-78.455248,14.83,76.0,,,31.6,16.7,16.1,2,Good,,,2026-06-12T03:36:32.347689
"estacion01, Cuenca, Ecuador",Ecuador,-2.897,-79.003,23.0,18.0,151.0,,130.2,9.7,4.6,151,Poor,,,2026-06-12T03:36:35.983624
"estacion02, Cuenca, Ecuador",Ecuador,-2.879789,-78.980213,23.0,18.0,134.0,,130.2,9.7,4.6,142,Poor,,,2026-06-12T03:36:39.269371
"estacion03, Cuenca, Ecuador",Ecuador,-2.879889,-78.981213,15.0,87.0,51.0,,16.5,4.6,9.5,51,Moderate,,,2026-06-12T03:36:42.348344
"Tumbaco, Quito, Ecuador",Ecuador,-0.214933,-78.403253,15.27,76.0,56.0,,29.1,5.3,,56,Moderate,,,2026-06-12T03:36:45.984255
"Carapungo, Quito, Ecuador",Ecuador,-0.095472,-78.449809,14.8,76.0,68.0,,34.3,6.2,18.8,68,Moderate,,,2026-06-12T03:36:51.270032
"San Borja, Lima, Peru",Peru,-12.10859,-77.00769,20.0,82.0,82.0,66.0,19.4,15.3,7.2,82,Moderate,,,2026-06-12T03:36:55.119996
"San Juan De Lurigancho, Lima, Peru",Peru,-11.98164,-76.99925,20.0,82.0,81.0,36.0,14.1,6.4,8.9,81,Moderate,,,2026-06-12T03:36:58.683538
"Campo De Marte, Lima, Peru",Peru,-12.07054,-77.04322,20.0,82.0,78.0,34.0,17.1,6.8,33.4,78,Moderate,,,2026-06-12T03:37:01.643611
"San Martin De Porres, Lima, Peru",Peru,-12.00889,-77.08447,20.0,82.0,78.0,34.0,14.8,6.0,6.0,78,Moderate,,,2026-06-12T03:37:05.120970
"Villa Maria Del Triunfo, Lima, Peru",Peru,-12.16639,-76.92,20.0,82.0,51.0,16.0,6.4,5.7,14.7,51,Moderate,,,2026-06-12T03:37:08.685192
"Santa Anita, Lima, Peru",Peru,-12.04302,-76.97144,20.0,82.0,,40.0,15.5,5.3,8.2,40,Good,,,2026-06-12T03:37:11.643175
"US Embassy, Lima, Peru",Peru,-12.1052081,-76.9709299,23.3,84.0,34.0,,,,,34,Good,,,2026-06-12T03:37:15.076952
"Huachipa, Lima, Peru",Peru,-12.01689,-76.94883,22.2,75.0,193.0,155.0,8.4,33.0,200.9,33,Good,,,2026-06-12T03:37:18.965823
"Ate, Lima, Peru",Peru,-12.02611,-76.91861,22.8,85.3,,,,,,-,,,,2026-06-12T03:37:22.789815
"Carabayllo, Lima, Peru",Peru,-11.90219,-77.03364,20.0,82.0,,,14.8,2.2,5.3,5,Good,,,2026-06-12T03:37:26.506971
"Puente Piedra, Lima, Peru",Peru,-11.86325,-77.07413,20.0,82.0,47.0,,19.3,3.7,9.0,47,Good,,,2026-06-12T03:37:29.790905
"Velachery Res. Area, Chennai, Chennai, India",Peru,13.0052189,80.2398125,31.6,58.836666666666666,80.0,60.0,4.5,2.1,,80,Moderate,,,2026-06-12T03:37:35.069967
"IIT, Chennai, Chennai, India",Peru,12.99251389,80.23744722,30.0,62.0,,,,,,-,,,,2026-06-12T03:37:38.508997
"Parque Kanata, Cochabamba, Bolivia",Bolivia,-17.4125902,-66.1584437,19.0,34.0,,51.0,18.9,,,51,Moderate,,,2026-06-12T03:37:53.834760
"Fuerza Aerea, Cochabamba, Bolivia",Bolivia,-17.4197854,-66.1685226,19.0,34.0,,49.0,,,,49,Good,,,2026-06-12T03:37:57.664720
"Semapa, Cochabamba, Bolivia",Bolivia,-17.3609718,-66.1607009,19.0,34.0,,25.0,,,,25,Good,,,2026-06-12T03:38:00.835621
"Alerce, Chile",Chile,-41.399169537038,-72.899522781372,10.0,100.0,335.0,,,,,335,Hazardous,,,2026-06-12T03:38:42.519156
"Rengo, Chile",Chile,-34.394541417902,-70.852981542328,9.6,96.0,180.0,99.0,,,,180,Poor,,,2026-06-12T03:38:46.423162
"Rancagua II, Chile",Chile,-34.143888375919,-70.737131207664,9.4,96.0,184.0,111.0,,,,184,Poor,,,2026-06-12T03:38:49.802243
"Puren, Chile",Chile,-36.616167751711,-72.093040558483,10.4,97.5,183.0,95.0,,,,183,Poor,,,2026-06-12T03:38:53.520403
"Nueva Libertad, Chile",Chile,-36.735998,-73.118693,10.0,93.0,175.0,84.0,25.7,6.9,14.7,175,Poor,,,2026-06-12T03:38:57.278335
"Rancagua I, Chile",Chile,-34.162314609087,-70.713919225517,9.7,94.9,175.0,116.0,,0.5,18.4,175,Poor,,,2026-06-12T03:39:00.993057
"San Fernando, Chile",Chile,-27.393267718517,-70.298615435165,10.0,93.0,151.0,58.0,,,,151,Poor,,,2026-06-12T03:39:11.993980
"Coyhaique II, Chile",Chile,-45.579045667164,-72.049964505825,2.0,74.0,154.0,52.0,,2.8,15.4,154,Poor,,,2026-06-12T03:39:17.279541
"Puente Alto, Chile",Chile,-33.591390623022,-70.594788,9.0,70.0,153.0,105.0,34.5,,28.2,153,Poor,,,2026-06-12T03:39:21.994463
"El Bosque, Chile",Chile,-33.547099645619,-70.666204101852,9.0,70.0,152.0,80.0,,,,152,Poor,,,2026-06-12T03:39:25.280192
"Cerro Navia, Chile",Chile,-33.433089610143,-70.732147868717,9.0,70.0,151.0,83.0,32.5,,20.8,151,Poor,,,2026-06-12T03:39:29.120721
"La Florida, Chile",Chile,-33.516630362266,-70.588123961971,9.0,70.0,151.0,94.0,35.0,7.2,22.5,151,Poor,,,2026-06-12T03:39:32.995188
"Coyhaique, Chile",Chile,-45.57996447948,-72.061125987766,2.0,74.0,151.0,55.0,,,,151,Poor,,,2026-06-12T03:39:36.110038
"US Embassy, Buenos Aires, Argentina",Argentina,-34.5773,-58.4176,25.0,72.9,5.0,,,,,5,Good,,,2026-06-12T03:39:44.996210
"Centenario, Buenos Aires, Argentina",Argentina,-34.635582,-58.5518647,24.0,53.0,,,,,,-,,,,2026-06-12T03:39:48.281584
"Cordoba, Buenos Aires, Argentina",Argentina,-34.5995674,-58.3915767,25.0,61.0,,,,,,-,,,,2026-06-12T03:39:52.111082
"La boca, Buenos Aires, Argentina",Argentina,-34.6344961,-58.3631337,25.0,61.0,,,,,,-,,,,2026-06-12T03:39:54.998896
"Dock Sud 1, Acumar, Argentina",Argentina,-34.657988,-58.342538,23.8,65.3,,,,,,-,,,,2026-06-12T03:39:58.137168
"La Matanza, Acumar, Argentina",Argentina,-34.6775885,-58.701767,20.2,88.8,,,,,,-,,,,2026-06-12T03:40:01.701748
"Argentina, Asturias, Spain",Argentina,43.53880000013,-5.6989000001636,13.8,88.6,25.0,18.0,5.1,2.1,0.1,25,Good,,,2026-06-12T03:40:05.667333
